{"business_id": "YDf95gJZaq05wvo7hTQbbQ", "name": "Richmond Town Square", "neighborhood": "", "address": "691 Richmond Rd", "city": "Richmond Heights", "state": "OH", "postal_code": "44143", "latitude": 41.5417162, "longitude": -81.4931165, "stars": 2.0, "review_count": 17, "is_open": 1, "attributes": {"RestaurantsPriceRange2": 2, "BusinessParking": {"garage": false, "street": false, "validated": false, "lot": true, "valet": false}, "BikeParking": true, "WheelchairAccessible": true}, "categories": ["Shopping", "Shopping Centers"], "hours": {"Monday": "10:00-21:00", "Tuesday": "10:00-21:00", "Friday": "10:00-21:00", "Wednesday": "10:00-21:00", "Thursday": "10:00-21:00", "Sunday": "11:00-18:00", "Saturday": "10:00-21:00"}}
{"business_id": "mLwM-h2YhXl2NCgdS84_Bw", "name": "South Florida Style Chicken & Ribs", "neighborhood": "Eastland", "address": "2824 Milton Rd", "city": "Charlotte", "state": "NC", "postal_code": "28215", "latitude": 35.23687, "longitude": -80.7419759, "stars": 4.5, "review_count": 4, "is_open": 0, "attributes": {"GoodForMeal": {"dessert": false, "latenight": false, "lunch": false, "dinner": false, "breakfast": false, "brunch": false}, "HasTV": false, "RestaurantsGoodForGroups": true, "NoiseLevel": "average", "RestaurantsAttire": "casual", "RestaurantsReservations": false, "OutdoorSeating": false, "BusinessAcceptsCreditCards": false, "RestaurantsPriceRange2": 2, "RestaurantsDelivery": true, "Ambience": {"romantic": false, "intimate": false, "classy": false, "hipster": false, "divey": false, "touristy": false, "trendy": false, "upscale": false, "casual": false}, "RestaurantsTakeOut": true, "GoodForKids": true}, "categories": ["Food", "Soul Food", "Convenience Stores", "Restaurants"], "hours": {"Monday": "10:00-22:00", "Tuesday": "10:00-22:00", "Friday": "10:00-22:00", "Wednesday": "10:00-22:00", "Thursday": "10:00-22:00", "Sunday": "10:00-22:00", "Saturday": "10:00-22:00"}}
{"business_id": "v2WhjAB3PIBA8J8VxG3wEg", "name": "The Tea Emporium", "neighborhood": "Riverdale", "address": "337 Danforth Avenue", "city": "Toronto", "state": "ON", "postal_code": "M4K 1N7", "latitude": 43.6771258, "longitude": -79.3532848, "stars": 4.5, "review_count": 7, "is_open": 0, "attributes": {"BusinessParking": {"garage": false, "street": true, "validated": false, "lot": false, "valet": false}, "WiFi": "no", "OutdoorSeating": false, "BusinessAcceptsCreditCards": true, "RestaurantsPriceRange2": 2, "BikeParking": true, "WheelchairAccessible": true}, "categories": ["Food", "Coffee & Tea"], "hours": {"Monday": "10:00-19:00", "Tuesday": "10:00-19:00", "Friday": "10:00-19:00", "Wednesday": "10:00-19:00", "Thursday": "10:00-19:00", "Sunday": "12:00-17:00", "Saturday": "10:00-18:00"}}
{"business_id": "CVtCbSB1zUcUWg-9TNGTuQ", "name": "TRUmatch", "neighborhood": "", "address": "7702 E Doubletree Ranch Rd, Ste 300", "city": "Scottsdale", "state": "AZ", "postal_code": "85258", "latitude": 33.5650816, "longitude": -111.9164003, "stars": 3.0, "review_count": 3, "is_open": 1, "attributes": {}, "categories": ["Professional Services", "Matchmakers"], "hours": {"Friday": "9:00-17:00", "Tuesday": "9:00-17:00", "Thursday": "9:00-17:00", "Wednesday": "9:00-17:00", "Monday": "9:00-17:00"}}
{"business_id": "duHFBe87uNSXImQmvBh87Q", "name": "Blimpie", "neighborhood": "", "address": "4719 N 20Th St", "city": "Phoenix", "state": "AZ", "postal_code": "85016", "latitude": 33.5059283, "longitude": -112.0388474, "stars": 4.5, "review_count": 10, "is_open": 0, "attributes": {"RestaurantsTableService": false, "GoodForMeal": {"dessert": false, "latenight": false, "lunch": false, "dinner": false, "breakfast": false, "brunch": false}, "Alcohol": "none", "Caters": true, "HasTV": false, "RestaurantsGoodForGroups": true, "NoiseLevel": "quiet", "WiFi": "no", "RestaurantsAttire": "casual", "RestaurantsReservations": false, "OutdoorSeating": false, "BusinessAcceptsCreditCards": true, "RestaurantsPriceRange2": 1, "BikeParking": true, "RestaurantsDelivery": false, "Ambience": {"romantic": false, "intimate": false, "classy": false, "hipster": false, "divey": false, "touristy": false, "trendy": false, "upscale": false, "casual": false}, "RestaurantsTakeOut": true, "GoodForKids": true, "BusinessParking": {"garage": false, "street": false, "validated": false, "lot": false, "valet": false}}, "categories": ["Sandwiches", "Restaurants"], "hours": {}}
{"business_id": "uUEMrhJiL1a1pCA_I1SU7Q", "name": "Baxter's Cigars", "neighborhood": "", "address": "2017 E Camelback Rd", "city": "Phoenix", "state": "AZ", "postal_code": "85016", "latitude": 33.5080678, "longitude": -112.0375524, "stars": 5.0, "review_count": 35, "is_open": 0, "attributes": {"BusinessAcceptsCreditCards": true, "RestaurantsPriceRange2": 2, "BusinessParking": {"garage": false, "street": false, "validated": false, "lot": true, "valet": false}, "BikeParking": true}, "categories": ["Shopping", "Tobacco Shops"], "hours": {"Monday": "10:00-20:00", "Tuesday": "10:00-20:00", "Friday": "10:00-21:00", "Wednesday": "10:00-20:00", "Thursday": "10:00-20:00", "Sunday": "10:00-19:00", "Saturday": "10:00-21:00"}}
{"business_id": "2eJEUJIP54tex7T9YOcLSw", "name": "Back-Health Chiropractic", "neighborhood": "", "address": "4425 N 24th St, Ste 125", "city": "Pittsburgh", "state": "AZ", "postal_code": "85016", "latitude": 33.5028476, "longitude": -112.012696, "stars": 5.0, "review_count": 19, "is_open": 1, "attributes": {"AcceptsInsurance": true, "ByAppointmentOnly": true, "BusinessAcceptsCreditCards": true}, "categories": ["Chiropractors", "Health & Medical"], "hours": {"Friday": "9:00-12:00", "Tuesday": "14:00-19:00", "Thursday": "14:00-19:00", "Wednesday": "14:30-17:00", "Monday": "14:30-17:00"}}
{"business_id": "fEylCY3UEH8YJ0Xa7lu6lA", "name": "Auto Bathouse", "neighborhood": "Lawrenceville", "address": "5770 Butler St", "city": "Pittsburgh", "state": "PA", "postal_code": "15201", "latitude": 40.4859391, "longitude": -79.9437273, "stars": 2.5, "review_count": 16, "is_open": 1, "attributes": {"BusinessAcceptsCreditCards": true}, "categories": ["Automotive", "Oil Change Stations", "Car Wash", "Auto Detailing"], "hours": {"Monday": "8:00-17:00", "Tuesday": "8:00-17:00", "Friday": "8:00-17:00", "Wednesday": "8:00-17:00", "Thursday": "8:00-17:00", "Sunday": "8:00-16:30", "Saturday": "8:00-17:00"}}
{"business_id": "kFtuYklkAIlmYw8RZAieGw", "name": "JAB Jewelry Designs", "neighborhood": "", "address": "3220 Washington Rd", "city": "Pittsburgh", "state": "PA", "postal_code": "15317", "latitude": 40.2904976, "longitude": -80.1100212, "stars": 5.0, "review_count": 7, "is_open": 1, "attributes": {"DogsAllowed": true, "BusinessParking": {"garage": false, "street": false, "validated": false, "lot": true, "valet": false}, "BusinessAcceptsCreditCards": true, "RestaurantsPriceRange2": 2, "BikeParking": true, "ByAppointmentOnly": false, "WheelchairAccessible": true}, "categories": ["Jewelry Repair", "Gold Buyers", "Local Services", "Shopping", "Appraisal Services", "Jewelry"], "hours": {"Monday": "10:00-18:00", "Tuesday": "10:00-18:00", "Friday": "10:00-18:00", "Wednesday": "10:00-20:00", "Thursday": "10:00-20:00", "Saturday": "10:00-16:00"}}
{"business_id": "NqiQdFa93wzUJGo29NbTPQ", "name": "Neighborhood Vision Center", "neighborhood": "", "address": "1425 S Higley Rd, Ste 103", "city": "Gilbert", "state": "AZ", "postal_code": "85296", "latitude": 33.3245392, "longitude": -111.7204486, "stars": 5.0, "review_count": 8, "is_open": 1, "attributes": {"AcceptsInsurance": true, "ByAppointmentOnly": true, "BusinessAcceptsCreditCards": true}, "categories": ["Health & Medical", "Optometrists"], "hours": {"Friday": "7:30-11:00", "Tuesday": "7:30-17:00", "Thursday": "7:30-17:00", "Wednesday": "7:30-17:00", "Monday": "7:30-17:00"}}
